[
   {
      "id":1,
      "name":"Billie",
      "address":"Amelie",
      "lat":14.755039,
      "lng":121.0051744,
      "phone":"547-798-6064",
      "unfinished_orders":[

      ],
      "finished_orders":[

      ]
   },
   {
      "id":2,
      "name":"Averell",
      "address":"Pauly",
      "lat":13.1561057,
      "lng":100.8120563,
      "phone":"537-698-5135",
      "unfinished_orders":[

      ],
      "finished_orders":[

      ]
   },
   {
      "id":3,
      "name":"Sarita",
      "address":"Kristian",
      "lat":49.8417042,
      "lng":5.1214901,
      "phone":"276-940-1409",
      "unfinished_orders":[

      ],
      "finished_orders":[

      ]
   },
   {
      "id":4,
      "name":"Kilian",
      "address":"Cary",
      "lat":-7.1665502,
      "lng":111.9969626,
      "phone":"720-559-1786",
      "unfinished_orders":[

      ],
      "finished_orders":[

      ]
   },
   {
      "id":5,
      "name":"Zachary",
      "address":"Rory",
      "lat":-35.9636265,
      "lng":-71.6831251,
      "phone":"754-343-7776",
      "unfinished_orders":[

      ],
      "finished_orders":[

      ]
   },
   {
      "id":6,
      "name":"Kylen",
      "address":"Leshia",
      "lat":"60.26808",
      "lng":"29.7523",
      "phone":"487-615-7229",
      "unfinished_orders":[

      ],
      "finished_orders":[

      ]
   },
   {
      "id":7,
      "name":"Antin",
      "address":"Sly",
      "lat":3.2093353,
      "lng":101.6716295,
      "phone":"755-367-0545",
      "unfinished_orders":[

      ],
      "finished_orders":[

      ]
   },
   {
      "id":8,
      "name":"Justus",
      "address":"Alvira",
      "lat":9.27682,
      "lng":-74.64532,
      "phone":"867-893-6655",
      "unfinished_orders":[

      ],
      "finished_orders":[

      ]
   },
   {
      "id":9,
      "name":"Regen",
      "address":"Lambert",
      "lat":9.5646371,
      "lng":37.0990498,
      "phone":"527-127-4484",
      "unfinished_orders":[

      ],
      "finished_orders":[

      ]
   },
   {
      "id":10,
      "name":"Llywellyn",
      "address":"Chrisse",
      "lat":34.363184,
      "lng":107.237743,
      "phone":"504-479-3529",
      "unfinished_orders":[

      ],
      "finished_orders":[

      ]
   },
   {
      "id":11,
      "name":"Noella",
      "address":"Delilah",
      "lat":13.7191394,
      "lng":100.2207634,
      "phone":"464-220-7997",
      "unfinished_orders":[

      ],
      "finished_orders":[

      ]
   },
   {
      "id":12,
      "name":"Jeannine",
      "address":"Drud",
      "lat":38.796598,
      "lng":-9.1453137,
      "phone":"319-133-1265",
      "unfinished_orders":[

      ],
      "finished_orders":[

      ]
   },
   {
      "id":13,
      "name":"Immanuel",
      "address":"Dulsea",
      "lat":51.5116933,
      "lng":-0.0829051,
      "phone":"247-185-0618",
      "unfinished_orders":[

      ],
      "finished_orders":[

      ]
   },
   {
      "id":14,
      "name":"Aldric",
      "address":"Micky",
      "lat":35.580555,
      "lng":100.761196,
      "phone":"139-356-3034",
      "unfinished_orders":[

      ],
      "finished_orders":[

      ]
   },
   {
      "id":15,
      "name":"Kerwin",
      "address":"Jacklyn",
      "lat":44.906512,
      "lng":127.60654,
      "phone":"874-671-8354",
      "unfinished_orders":[

      ],
      "finished_orders":[

      ]
   },
   {
      "id":16,
      "name":"Kristo",
      "address":"Shirley",
      "lat":16.1229667,
      "lng":120.3883934,
      "phone":"409-973-9163",
      "unfinished_orders":[

      ],
      "finished_orders":[

      ]
   },
   {
      "id":17,
      "name":"Dell",
      "address":"Hill",
      "lat":39.7199484,
      "lng":64.5384908,
      "phone":"817-526-5745",
      "unfinished_orders":[

      ],
      "finished_orders":[

      ]
   },
   {
      "id":18,
      "name":"Audrye",
      "address":"Elberta",
      "lat":39.867984,
      "lng":117.433236,
      "phone":"284-512-1896",
      "unfinished_orders":[

      ],
      "finished_orders":[

      ]
   },
   {
      "id":19,
      "name":"Monica",
      "address":"Margaux",
      "lat":13.0748766,
      "lng":123.7526021,
      "phone":"927-368-1396",
      "unfinished_orders":[

      ],
      "finished_orders":[

      ]
   },
   {
      "id":20,
      "name":"Timofei",
      "address":"Rafaelia",
      "lat":55.601379,
      "lng":36.4655267,
      "phone":"137-596-7657",
      "unfinished_orders":[

      ],
      "finished_orders":[

      ]
   }
]